[
  {
    "id": 1,
    "name": "Parroquia del Espíritu Santo",
    "location":{
      "lat": 32.5066065,
      "lon": -117.0087231,
      "state": "Baja California",
      "city": "Tijuana",
      "address": "Rosales 10611 y Cumpas",
      "neighborhood": "Chapultepec",
      "zipCode": 22420,
      "tel": ["(664) 621 8507", "(664) 621 8355"],
      "gallery": []
    }
  },
  {
    "id": 2,
    "name": "Parroquia de Nuestra Señora de Guadalupe",
    "location":{
      "lat": 32.4938335,
      "lon": -116.9582224,
      "state": "Baja California",
      "city": "Tijuana",
      "address": "Blvd. Díaz Ordaz 1393, Lavilla",
      "neighborhood": "La Mesa",
      "zipCode": 22105,
      "tel": ["(664) 686 8377", "(664) 621 8355"],
      "gallery": []
    }
  },
  {
    "id": 3,
    "name": "Templo Expiatorio del Sagrado Corazón de Jesús",
    "location":{
      "lat": 24.0249794,
      "lon": -104.6618745,
      "state": "Durango",
      "city": "Durango",
      "address": "Calle 5 de Febrero S/N",
      "neighborhood": "Zona Centro",
      "zipCode": 34000,
      "tel": ["(618) 811 2696", "(618) 812 9313"],
      "gallery": []
    }
  },
  {
    "id": 4,
    "name": "Servicio Obras de la Cruz",
    "location":{
      "lat": 25.6923649,
      "lon": -100.3531364,
      "state": "Nuevo León",
      "city": "Monterrey",
      "address": "Panamá 127",
      "neighborhood": "Vista Hermosa",
      "zipCode": 64620,
      "tel": ["(81) 8346 0694"],
      "gallery": []
    }
  },
  {
    "id": 5,
    "name": "Santoario de Nuestra Señora de Guadalupe",
    "location":{
      "lat": 25.6923649,
      "lon": -100.3531364,
      "state": "Coahuila",
      "city": "Saltillo",
      "address": "Panamá 127",
      "neighborhood": "Vista Hermosa",
      "zipCode": 64620,
      "tel": ["(81) 8346 0694"],
      "gallery": []
    }
  },
  {
    "id": 6,
    "name": "Santoario de Nuestra Señora de Guadalupe",
    "location":{
      "lat": 25.6923649,
      "lon": -100.3531364,
      "state": "Coahuila",
      "city": "Saltillo",
      "address": "Pérez Treviño y Ahuizotl 425",
      "neighborhood": "Col. Centro",
      "zipCode": 25000,
      "tel": ["(844) 414 9494", "(844) 414 2057", "(844) 414 1717"],
      "gallery": []
    }
  },
  {
    "id": 7,
    "name": "Parroquia de la Cruz del Apostolado",
    "location":{
      "lat": 25.7113757,
      "lon": -100.2144789,
      "state": "Nuevo León",
      "city": "Guadalupe",
      "address": "Hacienda 809",
      "neighborhood": "Fracc. Villa de San Miguel",
      "zipCode": 67110,
      "tel": ["(81) 2089 4032"],
      "gallery": []
    }
  },
  {
    "id": 8,
    "name": "Parroquia de Santa Ana",
    "location":{
      "lat": 22.1658576,
      "lon": -100.9584641,
      "state": "San Luis Potosí",
      "city": "Guadalcázar",
      "address": "Carretera San Luis Potosí-Matehuala km 94",
      "neighborhood": "Posas de Santa Ana",
      "zipCode": 78790,
      "tel": ["(444) 154 3446", "(444) 118 1056"],
      "gallery": []
    }
  },
  {
    "id": 9,
    "name": "Centro de Espiritualidad del Apostolado Monterrey CECAP Monterrey",
    "location":{
      "lat": 22.1658576,
      "lon": -100.9584641,
      "state": "San Luis Potosí",
      "city": "San Luis Potosí",
      "address": "Arenisca 550-A",
      "neighborhood": "Col. San Alberto",
      "zipCode": 78147,
      "tel": ["(444) 162 3757", "(444) 833 2585"],
      "gallery": []
    }
  },
  {
    "id": 10,
    "name": "Santuario de la Cruz del Apostolado",
    "location":{
      "lat": 22.170161,
      "lon": -101.0128295,
      "state": "San Luis Potosí",
      "city": "San Luis Potosí",
      "address": "Arenisca 550-A",
      "neighborhood": "Col. San Alberto",
      "zipCode": 78147,
      "tel": ["(444) 162 3757", "(444) 833 2585"],
      "gallery": []
    }
  },
  {
    "id": 11,
    "name": "Jesús María Noviciado SLP",
    "location":{
      "lat": 21.9201538,
      "lon": -100.9116048,
      "state": "San Luis Potosí",
      "city": "San Luis Potosí",
      "address": "Manuel Espinosa Pitman 100",
      "neighborhood": "Villa de Reyes",
      "zipCode": 79500,
      "tel": ["(485) 852 7092"],
      "gallery": []
    }
  },
  {
    "id": 12,
    "name": "Templo Santa Teresita del Niño de Jesús",
    "location":{
      "lat": 21.1238623,
      "lon": -101.6910775,
      "state": "Guanajuato",
      "city": "León",
      "address": "República de Chile 114",
      "neighborhood": "Col. Bellavista",
      "zipCode": 37360,
      "tel": ["(477) 713 3686", "(477) 716 3354"],
      "gallery": []
    }
  },
  {
    "id": 13,
    "name": "Templo Santa Teresita del Niño de Jesús",
    "location":{
      "lat": 21.1238623,
      "lon": -101.6910775,
      "state": "Guanajuato",
      "city": "León",
      "address": "República de Chile 114",
      "neighborhood": "Col. Bellavista",
      "zipCode": 37360,
      "tel": ["(477) 713 3686", "(477) 716 3354"],
      "gallery": []
    }
  },
  {
    "id": 14,
    "name": "Santuario de Nuestra Señora de Guadalupe del Centro",
    "location":{
      "lat": 20.6752481,
      "lon": -101.3492054,
      "state": "Guanajuato",
      "city": "Irapuato",
      "address": "Altamirano 362",
      "neighborhood": "Col. Centro",
      "zipCode": 36500,
      "tel": ["(462) 626 0324"],
      "gallery": []
    }
  },
  {
    "id": 15,
    "name": "Casa Provincial",
    "location":{
      "lat": 20.638548,
      "lon": -103.397763,
      "state": "Jalisco",
      "city": "Zapopan",
      "address": "Esmeralda",
      "neighborhood": "Col. Loma Bonita",
      "zipCode": 45060,
      "tel": ["(33) 3631 5046", "(33) 3631 5585"],
      "gallery": []
    }
  },
  {
    "id": 16,
    "name": "Escuela Apostólica",
    "location":{
      "lat": 20.6398353,
      "lon": -103.4079595,
      "state": "Jalisco",
      "city": "Zapopan",
      "address": "Av. Conchita 3067",
      "neighborhood": "Col. Loma Bonita",
      "zipCode": 45087,
      "tel": ["(33) 3631 5691"],
      "gallery": []
    }
  },
  {
    "id": 17,
    "name": "Filosofado",
    "location":{
      "lat": 20.6215559,
      "lon": -103.377902,
      "state": "Jalisco",
      "city": "Guadalajara",
      "address": "Concepción Loy #4059",
      "neighborhood": "Col. Patria Nueva",
      "zipCode": 44966,
      "tel": ["(33) 3144 3333"],
      "gallery": []
    }
  },
  {
    "id": 18,
    "name": "Templo Cristo Sacerdote",
    "location":{
      "lat": 20.6388633,
      "lon": -103.4081488,
      "state": "Jalisco",
      "city": "Zapopan",
      "address": "Av. Conchita 3015",
      "neighborhood": "Col. Loma Bonita",
      "zipCode": 45087,
      "tel": ["(33) 3631 7333", "(33) 3634 1134"],
      "gallery": []
    }
  },
  {
    "id": 19,
    "name": "Parroquia de Santa María Della Croce",
    "location":{
      "lat": 45.37519,
      "lon": 9.6939163,
      "state": "Crema",
      "city": "Crema",
      "address": "Via Battaglio 6",
      "neighborhood": "Crema",
      "zipCode": 26013,
      "tel": ["(39) 0373 81393"],
      "gallery": []
    }
  },
  {
    "id": 20,
    "name": "Parroquia de S. Ma. Liberatrice",
    "location":{
      "lat": 45.4366499,
      "lon": 9.1963762,
      "state": "Milán",
      "city": "Milán",
      "address": "Via Paolo Salaroli 11",
      "neighborhood": "Crema",
      "zipCode": 20141,
      "tel": ["(39) 0289 462092"],
      "gallery": []
    }
  }
]
